City,Lat,Lng,Max Temp,Humidity,Cloudiness,Wind Speed,Country,Date
sinjar,36.32,41.88,84.09,16,0,6.29,IQ,1594862715
mataura,-46.19,168.86,44.6,75,46,3.38,NZ,1594862715
anadyr,64.75,177.48,59.0,77,20,13.42,RU,1594862715
atambua,-9.11,124.89,78.76,56,97,6.24,ID,1594862715
sterling,39.01,-77.43,82.99,51,75,9.17,US,1594862715
kamaishi,39.27,141.88,64.4,88,75,2.24,JP,1594862716
cherskiy,68.75,161.3,47.8,59,94,5.06,RU,1594862716
taoudenni,22.68,-3.98,96.39,25,0,11.36,ML,1594862716
vieques,18.43,-65.83,82.4,74,40,10.29,PR,1594862716
zabaykalsk,49.63,117.32,77.4,61,17,8.93,RU,1594862716
jamestown,42.1,-79.24,77.0,57,1,2.93,US,1594862594
cape town,-33.93,18.42,44.6,81,0,3.36,ZA,1594862716
codrington,-38.27,141.97,50.92,77,0,4.43,AU,1594862716
punta arenas,-53.15,-70.92,32.0,93,4,4.7,CL,1594862646
rocha,-34.48,-54.33,39.06,77,0,4.54,UY,1594862716
bluff,-46.6,168.33,45.32,76,26,12.97,NZ,1594862717
san cristobal,7.77,-72.22,66.31,91,23,3.11,VE,1594862717
hermanus,-34.42,19.23,42.01,87,2,7.56,ZA,1594862638
muzhi,65.37,64.67,51.21,69,0,13.65,RU,1594862717
atuona,-9.8,-139.03,79.56,76,2,15.79,PF,1594862717
nokaneng,-19.67,22.27,48.13,72,0,11.16,BW,1594862717
logan,41.74,-111.83,89.6,13,1,3.36,US,1594862717
shelburne,44.08,-80.2,73.99,60,1,6.93,CA,1594862717
khatanga,71.97,102.5,55.44,74,100,8.63,RU,1594862717
poya,-21.35,165.15,73.71,46,4,8.86,NC,1594862718
bira,49.0,132.47,85.59,65,15,1.45,RU,1594862718
tura,25.52,90.22,76.5,94,100,5.75,IN,1594862718
bathsheba,13.22,-59.52,82.4,74,40,12.75,BB,1594862718
soe,-9.86,124.28,71.73,64,0,7.61,ID,1594862718
labuhan,-6.88,112.21,79.03,81,24,6.15,ID,1594862718
vestmannaeyjar,63.44,-20.27,52.97,92,100,22.77,IS,1594862718
albany,42.6,-73.97,78.01,65,64,3.76,US,1594862718
vaini,-21.2,-175.2,78.8,74,75,9.17,TO,1594862718
sitia,35.2,26.1,78.01,32,0,13.0,GR,1594862719
mayo,38.89,-76.51,80.01,83,1,9.17,US,1594862719
cabra,37.47,-4.44,77.0,54,0,4.76,ES,1594862719
kahului,20.89,-156.47,86.0,51,40,20.8,US,1594862560
leh,34.17,77.58,58.44,41,18,5.68,IN,1594862719
haines junction,60.75,-137.51,63.57,47,58,7.92,CA,1594862719
ballina,-28.87,153.57,62.6,48,0,14.99,AU,1594862719
esna,25.29,32.55,86.0,35,0,4.7,EG,1594862719
rikitea,-23.12,-134.97,74.19,87,100,9.37,PF,1594862583
hithadhoo,-0.6,73.08,83.46,71,99,3.18,MV,1594862465
saskylakh,71.92,114.08,60.69,43,92,20.07,RU,1594862720
roblin,51.23,-101.36,63.88,82,55,12.64,CA,1594862438
karpathos,35.51,27.21,73.4,64,0,31.09,GR,1594862720
fredericton,45.95,-66.67,57.99,67,1,6.93,CA,1594862658
torbay,47.67,-52.73,50.0,100,90,16.11,CA,1594862720
kaitong,44.81,123.15,88.5,42,0,12.59,CN,1594862720
lanja,16.85,73.55,75.51,94,100,7.7,IN,1594862720
puerto leguizamo,-0.19,-74.78,71.64,97,22,0.49,CO,1594862720
jabinyanah,35.03,10.91,80.6,74,0,8.05,TN,1594862721
dikson,73.51,80.55,40.08,97,100,4.07,RU,1594862721
bow island,49.87,-111.37,75.99,36,75,8.05,CA,1594862721
bengkulu,-3.8,102.27,79.92,76,86,3.98,ID,1594862721
khomeyn,33.64,50.08,61.68,55,82,3.38,IR,1594862721
mount gambier,-37.83,140.77,42.8,100,40,8.05,AU,1594862721
trelew,-43.25,-65.31,41.9,69,100,2.62,AR,1594862430
ahipara,-35.17,173.17,63.27,84,100,7.09,NZ,1594862583
manokwari,-0.87,134.08,83.5,70,2,6.22,ID,1594862721
cabo san lucas,22.89,-109.91,91.99,55,5,11.41,MX,1594862540
arraial do cabo,-22.97,-42.03,68.0,72,90,4.7,BR,1594862721
barrow,71.29,-156.79,44.6,75,1,10.29,US,1594862722
rudbar,30.15,62.6,82.9,24,9,11.16,AF,1594862722
te anau,-45.42,167.72,39.92,70,90,0.89,NZ,1594862722
qaanaaq,77.48,-69.36,41.65,85,100,7.11,GL,1594862722
vangaindrano,-23.35,47.6,65.23,86,30,11.63,MG,1594862722
mar del plata,-38.0,-57.56,46.99,80,0,5.82,AR,1594862722
fazendas de almeirim,39.18,-8.57,75.99,57,0,5.57,PT,1594862722
new norfolk,-42.78,147.06,48.99,87,100,0.58,AU,1594862722
muisne,0.6,-80.03,74.75,86,100,7.31,EC,1594862659
plettenberg bay,-34.05,23.37,52.25,42,100,3.83,ZA,1594862723
avarua,-21.21,-159.78,73.4,60,86,11.41,CK,1594862723
busselton,-33.65,115.33,62.01,91,7,22.35,AU,1594862723
teahupoo,-17.83,-149.27,78.8,83,75,3.36,PF,1594862552
chuy,-33.7,-53.46,41.58,72,0,3.58,UY,1594862723
ilulissat,69.22,-51.1,44.6,75,70,5.82,GL,1594862723
muros,42.78,-9.06,62.01,75,0,5.99,ES,1594862723
fortuna,40.6,-124.16,62.01,72,1,11.41,US,1594862723
puerto ayora,-0.74,-90.35,68.0,88,89,6.46,EC,1594862691
kvitok,56.07,98.48,57.34,60,84,6.4,RU,1594862724
hilo,19.73,-155.09,84.2,58,40,11.41,US,1594862661
caucaia,-3.74,-38.65,80.01,83,40,9.17,BR,1594862724
georgetown,5.41,100.34,84.2,94,20,3.36,MY,1594862646
vao,-22.67,167.48,69.51,72,32,22.41,NC,1594862724
coahuayana,18.73,-103.68,80.64,86,98,0.83,MX,1594862724
usinsk,65.99,57.53,48.22,73,15,6.06,RU,1594862724
luanda,-8.84,13.23,69.8,94,40,1.12,AO,1594862724
faya,18.39,42.45,75.2,27,40,4.7,SA,1594862725
vaitape,-16.52,-151.75,78.89,84,21,17.09,PF,1594862621
soyo,-6.13,12.37,71.15,91,65,5.03,AO,1594862725
chake chake,-5.25,39.77,75.13,78,97,13.49,TZ,1594862725
marawi,8.0,124.29,82.0,76,55,5.01,PH,1594862725
saldanha,-33.01,17.94,46.4,70,0,3.36,ZA,1594862725
okhotsk,59.38,143.3,59.65,88,100,6.13,RU,1594862725
provideniya,64.38,-173.3,48.2,81,75,13.42,RU,1594862725
ushuaia,-54.8,-68.3,26.6,86,20,4.7,AR,1594862723
presidencia roque saenz pena,-26.79,-60.44,51.96,55,100,4.27,AR,1594862726
hofn,64.25,-15.21,51.01,92,100,12.24,IS,1594862726
pingliang,35.54,106.69,70.27,67,25,4.41,CN,1594862726
tamandare,-8.76,-35.1,74.88,80,0,7.4,BR,1594862726
grand gaube,-20.01,57.66,68.0,84,87,5.01,MU,1594862726
constitucion,-35.33,-72.42,53.1,87,100,6.71,CL,1594862726
lagoa,39.05,-27.98,68.09,81,100,13.58,PT,1594862726
upernavik,72.79,-56.15,42.96,88,69,1.63,GL,1594862726
acari,-15.43,-74.62,63.05,63,57,4.56,PE,1594862726
geraldton,-28.77,114.6,60.8,82,75,6.93,AU,1594862726
tuatapere,-46.13,167.68,42.48,72,46,3.27,NZ,1594862727
narsaq,60.92,-46.05,48.2,70,1,5.82,GL,1594862727
cauquenes,-35.97,-72.32,51.82,80,100,2.44,CL,1594862727
port blair,11.67,92.75,79.27,82,100,7.02,IN,1594862525
touros,-5.2,-35.46,73.4,100,20,3.36,BR,1594862727
rongcheng,30.63,117.85,81.0,99,96,2.95,CN,1594862727
uchiza,-8.46,-76.46,69.8,83,0,2.8,PE,1594862727
east london,-33.02,27.91,54.43,42,31,5.61,ZA,1594862727
tailai,46.38,123.4,89.24,38,37,10.47,CN,1594862727
nome,64.5,-165.41,52.0,81,90,5.82,US,1594862727
verkhnevilyuysk,63.45,120.32,79.14,52,64,5.1,RU,1594862728
chokurdakh,70.63,147.92,37.27,92,100,12.59,RU,1594862728
guerrero negro,27.98,-114.06,72.84,65,4,20.2,MX,1594862728
qui nhon,13.77,109.23,84.16,73,0,5.19,VN,1594862728
castro,-24.79,-50.01,49.19,94,4,6.91,BR,1594862728
saint-philippe,-21.36,55.77,66.2,63,36,4.7,RE,1594862728
ribeira grande,38.52,-28.7,69.06,81,100,5.48,PT,1594862728
katsuura,35.13,140.3,72.0,77,100,1.99,JP,1594862728
airai,-8.93,125.41,66.7,72,48,5.03,TL,1594862729
longyearbyen,78.22,15.64,44.6,81,75,4.7,SJ,1594862729
sosnovo-ozerskoye,52.52,111.54,63.59,87,100,12.26,RU,1594862729
bredasdorp,-34.53,20.04,35.6,93,0,3.33,ZA,1594862729
deputatskiy,69.3,139.9,40.64,70,99,9.17,RU,1594862729
tiksi,71.69,128.87,36.77,86,78,20.83,RU,1594862729
rio gallegos,-51.62,-69.22,26.6,92,75,8.05,AR,1594862721
casper,42.87,-106.31,86.0,17,1,8.05,US,1594862714
carnarvon,-24.87,113.63,71.6,53,75,12.75,AU,1594862684
koslan,63.46,48.9,51.73,93,100,10.78,RU,1594862729
sibu,2.3,111.82,77.0,94,40,2.24,MY,1594862659
homer,59.64,-151.55,66.2,59,1,13.87,US,1594862730
mandalgovi,45.76,106.27,64.89,57,4,21.23,MN,1594862730
gambo,4.65,22.26,68.4,95,100,0.81,CF,1594862730
tuktoyaktuk,69.45,-133.04,60.8,55,75,10.29,CA,1594862730
vilhena,-12.74,-60.15,72.28,46,0,3.0,BR,1594862730
kendari,-3.94,122.5,79.25,82,32,3.47,ID,1594862730
molina,-35.12,-71.28,53.01,93,57,4.7,CL,1594862730
nago,26.59,127.98,84.2,89,90,13.87,JP,1594862730
elko,41.0,-115.5,91.4,6,1,9.17,US,1594862730
victoria,22.29,114.16,87.01,70,88,13.0,HK,1594862431
sayyan,15.17,44.32,67.98,50,100,8.88,YE,1594862731
ponta do sol,32.67,-17.1,69.8,68,40,9.17,PT,1594862731
abaza,52.66,90.09,57.72,73,100,2.82,RU,1594862731
vavuniya,8.75,80.5,78.3,82,96,8.34,LK,1594862731
hobart,-42.88,147.33,48.99,76,75,5.82,AU,1594862599
bandarbeyla,9.49,50.81,81.82,60,7,25.9,SO,1594862707
mandeville,18.04,-77.51,86.0,79,20,9.17,JM,1594862655
butaritari,3.07,172.79,82.63,74,100,11.86,KI,1594862731
luderitz,-26.65,15.16,73.4,11,0,21.92,NA,1594862731
rolla,37.95,-91.77,79.0,73,1,14.99,US,1594862468
yellowknife,62.46,-114.35,64.0,63,75,14.99,CA,1594862450
kapaa,22.08,-159.32,84.99,74,40,11.41,US,1594862698
port elizabeth,-33.92,25.57,39.2,86,0,5.82,ZA,1594862732
dicabisagan,17.08,122.42,87.04,67,8,8.57,PH,1594862732
nikolskoye,59.7,30.79,59.0,72,70,8.95,RU,1594862732
lavrentiya,65.58,-171.0,49.55,82,100,6.15,RU,1594862732
trinidad,-14.83,-64.9,74.77,72,0,2.57,BO,1594862732
pullman,46.73,-117.18,84.0,26,1,5.82,US,1594862732
souillac,-20.52,57.52,68.0,88,75,11.41,MU,1594862732
port alfred,-33.59,26.89,52.57,44,0,6.71,ZA,1594862732
itamaraca,-7.75,-34.83,78.8,74,40,9.17,BR,1594862733
bambous virieux,-20.34,57.76,68.0,88,75,11.41,MU,1594862733
vardo,70.37,31.11,54.59,69,0,9.28,NO,1594862726
kamenka,51.32,42.77,55.99,80,6,7.83,RU,1594862733
abatskoye,56.29,70.46,68.13,78,0,5.82,RU,1594862733
kashira,54.84,38.17,59.0,87,40,6.71,RU,1594862733
tasiilaq,65.61,-37.64,42.8,75,0,6.93,GL,1594862733
puerto concordia,2.62,-72.76,73.31,92,100,2.37,CO,1594862733
dehloran,32.69,47.27,88.43,18,0,7.52,IR,1594862734
norman wells,65.28,-126.83,75.2,41,75,5.82,CA,1594862734
la fria,8.22,-72.24,75.65,79,86,4.34,VE,1594862734
leningradskiy,69.38,178.42,48.34,73,95,15.97,RU,1594862734
college,64.86,-147.8,71.6,43,75,12.75,US,1594862734
nantucket,41.28,-70.1,64.99,77,1,10.29,US,1594862434
asosa,10.07,34.53,60.84,100,100,1.59,ET,1594862734
kjollefjord,70.95,27.35,54.82,75,12,10.16,NO,1594862524
aksarka,66.56,67.8,50.47,83,79,4.21,RU,1594862734
mitu,1.2,-70.17,73.11,91,100,1.16,CO,1594862735
paamiut,61.99,-49.67,44.19,79,0,18.34,GL,1594862735
bilma,18.69,12.92,86.0,35,0,10.09,NE,1594862735
ust-nera,64.57,143.2,64.15,44,73,3.2,RU,1594862735
lata,40.16,-8.33,73.99,76,0,3.8,PT,1594862735
tiarei,-17.53,-149.33,78.8,83,75,3.36,PF,1594862735
portland,45.52,-122.68,87.01,37,1,13.87,US,1594862155
dormidontovka,47.77,134.91,76.66,73,0,8.08,RU,1594862735
faanui,-16.48,-151.75,78.06,86,25,17.02,PF,1594862735
mahebourg,-20.41,57.7,68.0,88,75,11.41,MU,1594862735
kungurtug,50.6,97.52,56.55,77,14,3.56,RU,1594862736
paita,-5.09,-81.11,62.94,84,0,12.24,PE,1594862736
yulara,-25.24,130.99,50.0,39,0,5.82,AU,1594862736
dingle,11.0,122.67,82.06,81,93,8.08,PH,1594862736
jinchang,38.5,102.17,73.76,47,100,10.8,CN,1594862736
dingzhou,38.51,115.0,80.6,83,27,4.47,CN,1594862736
emirdag,39.02,31.15,63.07,77,0,1.36,TR,1594862736
yanam,16.73,82.22,76.93,90,100,6.02,IN,1594862737
rabak,13.18,32.74,78.85,70,100,22.37,SD,1594862547
bondo,3.81,23.69,67.96,98,100,1.72,CD,1594862737
waingapu,-9.66,120.26,77.92,69,65,13.85,ID,1594862737
solnechnyy,50.72,136.63,79.21,65,99,5.17,RU,1594862737
ulaangom,49.98,92.07,63.57,52,16,4.61,MN,1594862737
esperance,-33.87,121.9,50.0,76,0,14.99,AU,1594862737
lebu,-37.62,-73.65,51.89,89,100,2.98,CL,1594862737
vuktyl,63.86,57.31,52.03,88,86,10.07,RU,1594862737
comodoro rivadavia,-45.87,-67.5,37.4,74,75,4.7,AR,1594862737
altay,47.87,88.12,71.82,38,0,4.61,CN,1594862738
hasaki,35.73,140.83,71.01,88,75,8.05,JP,1594862738
washington,47.5,-120.5,91.4,21,1,17.22,US,1594862702
sistranda,63.73,8.83,53.6,100,75,3.36,NO,1594862738
cruz grande,16.73,-99.13,86.0,79,75,5.82,MX,1594862738
san blas,21.52,-105.27,85.37,67,3,4.38,MX,1594862738
asfi,32.3,-9.24,74.71,71,0,8.48,MA,1594862738
bethel,41.37,-73.41,71.6,78,75,6.93,US,1594862717
bahia blanca,-38.72,-62.27,47.05,69,0,7.81,AR,1594862738
abha,18.22,42.51,75.2,27,40,4.7,SA,1594862739
iqaluit,63.75,-68.51,64.4,34,20,2.24,CA,1594862739
aasiaat,68.71,-52.87,39.85,91,8,6.35,GL,1594862739
mitsamiouli,-11.38,43.28,75.96,72,0,23.17,KM,1594862739
alice springs,-23.7,133.88,55.4,43,0,14.99,AU,1594862739
saint-michel-des-saints,46.68,-73.92,69.01,6,99,2.55,CA,1594862739
mashhad,36.3,59.61,75.2,50,40,13.87,IR,1594862638
kuytun,54.34,101.5,56.44,65,21,12.75,RU,1594862739
kimbe,-5.55,150.14,89.29,56,12,3.2,PG,1594862739
libenge,3.65,18.63,70.23,95,100,1.9,CD,1594862739
baymak,52.59,58.32,66.09,67,0,2.73,RU,1594862740
fukue,32.69,128.84,75.2,83,75,4.7,JP,1594862740
sao filipe,14.9,-24.5,76.62,82,53,10.89,CV,1594862740
daru,-9.08,143.21,78.58,84,97,19.06,PG,1594862740
serenje,-13.23,30.24,49.39,77,6,12.44,ZM,1594862740
high level,58.52,-117.14,73.4,33,20,4.7,CA,1594862740
yerbogachen,61.28,108.01,57.69,70,65,11.68,RU,1594862740
stokmarknes,68.56,14.91,55.0,87,100,1.99,NO,1594862740
pavilosta,56.89,21.19,53.6,93,6,3.36,LV,1594862741
todos santos,23.45,-110.22,80.01,79,0,4.0,MX,1594862741
kurilsk,45.23,147.88,53.82,79,56,3.47,RU,1594862741
kavieng,-2.57,150.8,84.56,64,12,3.96,PG,1594862741
golfito,8.64,-83.17,77.0,88,93,2.51,CR,1594862741
tambovka,50.1,128.05,78.8,74,40,2.24,RU,1594862741
nemuro,43.32,145.57,55.4,87,75,1.12,JP,1594862741
zermatt,46.02,7.75,64.4,92,90,11.41,CH,1594862741
aklavik,68.22,-135.01,64.4,55,75,8.05,CA,1594862741
parabel,58.7,81.48,65.23,93,1,12.12,RU,1594862741
tecpan,14.76,-90.99,71.6,68,75,13.87,GT,1594862742
assiniboia,49.63,-105.98,68.99,50,100,14.74,CA,1594862742
cap malheureux,-19.98,57.61,68.0,84,86,5.01,MU,1594862742
mushie,-3.02,16.9,75.6,74,79,2.57,CD,1594862742
heze,35.24,115.44,81.61,63,11,5.66,CN,1594862742
svetlogorsk,52.63,29.73,49.55,86,100,6.08,BY,1594862742
butterworth,5.4,100.36,84.2,94,20,3.36,MY,1594862742
itaituba,-4.28,-55.98,78.04,65,11,1.25,BR,1594862742
ardakan,32.31,54.02,80.6,36,75,9.17,IR,1594862742
salinopolis,-0.61,-47.36,78.66,84,0,12.41,BR,1594862743
abashiri,44.02,144.27,66.99,72,75,4.7,JP,1594862743
beyneu,45.32,55.2,79.95,24,0,8.61,KZ,1594862743
puerto madryn,-42.77,-65.04,46.56,70,100,10.16,AR,1594862743
tezu,27.92,96.17,76.3,85,100,1.1,IN,1594862743
yar-sale,66.83,70.83,49.33,72,60,18.81,RU,1594862743
kodiak,57.79,-152.41,73.4,43,40,4.7,US,1594862521
wamba,8.93,8.6,72.27,94,100,2.39,NG,1594862743
maputo,-25.97,32.59,55.0,62,0,9.17,MZ,1594862743
saint george,37.1,-113.58,104.0,10,1,9.17,US,1594862666
santa cruz de la palma,28.68,-17.76,71.6,73,90,13.87,ES,1594862744
acajutla,13.59,-89.83,71.01,100,40,4.81,SV,1594862744
turochak,52.26,87.12,62.1,72,16,1.7,RU,1594862744
carahue,-38.7,-73.17,46.4,100,100,1.12,CL,1594862744
kruisfontein,-34.0,24.73,42.62,62,8,3.62,ZA,1594862744
bani walid,31.76,13.99,75.11,51,0,6.51,LY,1594862744
kiunga,-6.12,141.29,78.98,91,76,5.03,PG,1594862744
terra santa,-2.1,-56.49,77.09,71,19,1.77,BR,1594862744
kaitangata,-46.28,169.85,46.0,75,40,5.99,NZ,1594862745
green river,41.53,-109.47,82.4,14,1,16.11,US,1594862738
viedma,-40.81,-63.0,43.07,71,97,6.71,AR,1594862663
juegang,32.32,121.19,75.0,83,78,1.01,CN,1594862745
pervomayskoye,43.92,46.71,73.31,59,25,2.39,RU,1594862745
naze,28.37,129.48,80.6,88,75,24.16,JP,1594862745
abnub,27.27,31.15,78.8,65,0,11.41,EG,1594862745
slave lake,55.28,-114.77,64.4,59,75,6.93,CA,1594862745
kirakira,-10.45,161.92,83.46,68,88,1.88,SB,1594862745
novikovo,51.15,37.89,52.2,78,37,9.19,RU,1594862745
huron,41.15,-82.55,80.01,64,100,6.76,US,1594862746
malakal,9.53,31.66,73.45,94,100,1.92,SS,1594862746
richards bay,-28.78,32.04,53.85,72,15,5.61,ZA,1594862746
liwale,-9.77,37.93,64.04,90,100,8.86,TZ,1594862746
numan,9.47,12.03,73.06,92,7,3.78,NG,1594862746
barkhan,29.9,69.53,83.95,46,0,3.33,PK,1594862746
sotouboua,8.57,0.98,69.55,94,100,1.32,TG,1594862746
clyde river,70.47,-68.59,64.4,42,20,5.82,CA,1594862746
raahe,64.68,24.48,57.2,87,37,4.7,FI,1594862746
evensk,61.95,159.23,50.32,95,100,3.33,RU,1594862747
verkhnyaya inta,65.98,60.31,48.31,75,54,3.67,RU,1594862747
pangnirtung,66.15,-65.71,60.46,35,64,3.0,CA,1594862747
port pirie,-33.18,138.02,57.2,54,0,4.7,AU,1594862747
zyryanka,65.75,150.85,50.63,50,100,7.49,RU,1594862747
orebro,59.27,15.21,59.0,93,4,4.7,SE,1594862747
winchester,51.07,-1.32,60.01,82,61,6.93,GB,1594862747
cidreira,-30.18,-50.21,49.93,64,0,6.51,BR,1594862747
petropavlovsk-kamchatskiy,53.05,158.65,59.0,93,90,8.95,RU,1594862665
san antonio,29.42,-98.49,97.0,41,1,11.41,US,1594862559
sebastian,35.17,-94.27,91.4,59,40,5.82,US,1594862748
banjarmasin,-3.32,114.59,78.8,94,92,2.24,ID,1594862748
novosheshminsk,55.07,51.23,67.69,81,91,1.41,RU,1594862748
cabimas,10.39,-71.44,82.67,71,27,15.97,VE,1594862748
honiara,-9.43,159.95,82.4,78,75,9.17,SB,1594862490
kaeo,-35.1,173.78,61.0,3,99,1.99,NZ,1594862748
alofi,-19.06,-169.92,78.8,65,75,13.87,NU,1594862748
oranjestad,12.52,-70.03,82.4,78,20,17.22,AW,1594862708
shenjiamen,29.96,122.3,72.9,95,100,13.71,CN,1594862749
sakakah,29.97,40.21,93.2,17,0,5.82,SA,1594862749
alugan,12.22,125.48,84.85,72,100,10.69,PH,1594862584
tyukhtet,56.54,89.3,58.87,67,21,5.12,RU,1594862749
namibe,-15.2,12.15,64.47,87,0,8.52,AO,1594862749
wisconsin rapids,44.38,-89.82,64.4,82,90,5.82,US,1594862749
la rioja,42.25,-2.5,60.8,67,2,6.93,ES,1594862749
la peca,-5.61,-78.44,66.69,85,32,3.13,PE,1594862749
samandag,36.08,35.98,78.8,83,4,11.41,TR,1594862749
pevek,69.7,170.31,45.63,86,100,1.97,RU,1594862750
sao joao da barra,-21.64,-41.05,67.75,79,100,10.96,BR,1594862750
tahta,26.77,31.5,84.2,35,0,13.87,EG,1594862750
salalah,17.02,54.09,80.6,94,75,3.36,OM,1594862750
caravelas,-17.71,-39.25,71.55,86,23,8.75,BR,1594862750
roebourne,-20.78,117.13,70.63,27,0,17.29,AU,1594862750
san quintin,30.48,-115.95,70.12,72,0,18.05,MX,1594862750
christchurch,-43.53,172.63,46.99,93,95,2.24,NZ,1594862749
turukhansk,65.82,87.98,51.89,74,100,12.06,RU,1594862751
henties bay,-22.12,14.28,71.01,16,0,5.01,NA,1594862751
axim,4.87,-2.24,74.05,86,100,8.25,GH,1594862751
husavik,66.04,-17.34,51.8,81,90,9.17,IS,1594862751
payo,-3.75,103.64,76.59,89,79,0.43,ID,1594862751
taltal,-25.4,-70.48,57.85,64,0,3.0,CL,1594862751
ponnani,10.77,75.93,75.2,88,90,3.36,IN,1594862751
asyut,27.18,31.18,78.8,65,0,11.41,EG,1594862751
seabra,-12.42,-41.77,61.5,91,27,6.26,BR,1594862751
tazovskiy,67.47,78.7,48.09,95,100,23.78,RU,1594862751
alyangula,-13.85,136.42,78.8,50,0,8.05,AU,1594862752
laguna de perlas,12.34,-83.67,79.81,90,100,10.33,NI,1594862752
nanortalik,60.14,-45.24,42.26,88,13,7.18,GL,1594862752
port-gentil,-0.72,8.78,73.94,81,100,9.26,GA,1594862752
birnin kebbi,12.45,4.2,76.82,83,92,7.87,NG,1594862728
ylivieska,64.08,24.55,57.99,79,81,2.17,FI,1594862752
karratha,-20.74,116.85,71.24,28,0,17.2,AU,1594862752
peniche,39.36,-9.38,66.0,78,0,1.01,PT,1594862752
veraval,20.9,70.37,81.93,86,100,6.55,IN,1594862752
pisco,-13.7,-76.22,61.0,87,90,6.93,PE,1594862718
zemio,5.03,25.14,68.09,97,100,0.38,CF,1594862753
mwinilunga,-11.74,24.43,51.76,44,0,8.05,ZM,1594862753
japura,-0.32,102.35,76.78,90,2,3.2,ID,1594862753
camana,-16.62,-72.71,61.18,81,41,6.46,PE,1594862753
leninskoye,47.94,132.62,77.92,83,99,7.81,RU,1594862753
general roca,-39.03,-67.58,41.0,86,73,3.83,AR,1594862753
broome,42.25,-75.83,75.0,56,1,4.7,US,1594862753
nabire,-3.37,135.48,85.33,64,6,2.77,ID,1594862706
calabozo,8.92,-67.43,75.56,94,0,3.8,VE,1594862753
baykit,61.67,96.37,55.81,61,48,8.5,RU,1594862754
itarema,-2.92,-39.92,77.13,83,2,12.26,BR,1594862754
havelock,34.88,-76.9,81.0,86,0,1.01,US,1594862754
saint anthony,45.02,-93.22,80.01,31,1,6.93,US,1594862754
padang,-0.95,100.35,81.23,67,28,4.23,ID,1594862754
bundaberg,-24.85,152.35,64.4,34,0,13.87,AU,1594862754
shu,43.6,73.76,73.99,62,0,3.53,KZ,1594862754
napier,-39.48,176.92,50.0,84,100,1.99,NZ,1594862754
foz,43.57,-7.25,57.0,95,85,10.0,ES,1594862754
awjilah,29.11,21.29,76.98,43,0,10.69,LY,1594862755
anchorage,61.22,-149.9,78.8,34,1,9.17,US,1594862720
qitaihe,45.8,130.85,80.69,67,0,2.17,CN,1594862755
sabzevar,36.21,57.68,73.11,51,0,9.04,IR,1594862755
novyy urgal,51.07,132.56,83.17,58,88,4.5,RU,1594862755
thompson,55.74,-97.86,62.6,88,75,10.29,CA,1594862634
muriti,-1.98,32.92,73.4,49,75,12.75,TZ,1594862755
bubaque,11.28,-15.83,79.52,84,100,20.94,GW,1594862755
diamantino,-14.41,-56.45,75.58,34,0,5.23,BR,1594862755
pontes e lacerda,-15.23,-59.34,75.47,52,0,2.26,BR,1594862756
uruzgan,32.83,66.0,69.44,38,71,6.29,AF,1594862756
mason city,43.15,-93.2,66.99,72,1,4.7,US,1594862686
hay river,60.82,-115.8,64.4,68,40,8.05,CA,1594862756
shestakovo,56.49,103.96,58.17,55,81,8.93,RU,1594862756
maceio,-9.67,-35.74,75.2,88,75,3.36,BR,1594862672
buraydah,26.33,43.98,95.0,21,0,14.99,SA,1594862756
fairbanks,64.84,-147.72,71.6,43,75,12.75,US,1594862756
coquimbo,-29.95,-71.34,53.6,76,90,4.7,CL,1594862757
sorland,67.67,12.69,55.6,81,100,4.9,NO,1594862757
balila,32.39,35.94,75.2,44,0,5.79,JO,1594862757
terme,41.21,36.97,71.6,83,75,2.73,TR,1594862757
saint-augustin,51.23,-58.65,51.89,72,0,3.71,CA,1594862757
srednekolymsk,67.45,153.68,48.18,58,100,7.67,RU,1594862757
jalu,29.03,21.55,77.13,41,0,9.26,LY,1594862757
tessalit,20.2,1.01,83.28,47,35,13.04,ML,1594862757
atar,20.52,-13.05,91.15,21,0,6.22,MR,1594862757
yamada,39.47,141.95,61.45,90,100,3.78,JP,1594862758
hualmay,-11.1,-77.61,60.57,84,18,10.07,PE,1594862758
ostrovnoy,68.05,39.51,51.35,79,0,10.71,RU,1594862758
yokadouma,3.52,15.05,66.51,94,9,1.05,CM,1594862758
arcata,40.87,-124.08,68.0,63,1,6.93,US,1594862758
male,4.17,73.51,84.2,89,75,10.29,MV,1594862758
ihosy,-22.4,46.12,58.03,75,73,6.96,MG,1594862758
lasa,46.62,10.7,53.01,100,40,4.7,IT,1594862758
manicore,-5.81,-61.3,77.0,94,0,0.87,BR,1594862758
severo-kurilsk,50.68,156.12,53.91,85,100,6.17,RU,1594862759
monterey,36.25,-121.25,70.0,63,20,14.99,US,1594862759
bela,25.93,81.98,85.77,72,0,9.17,IN,1594862759
noshiro,40.2,140.02,71.6,73,75,6.93,JP,1594862759
lafiagi,8.87,5.42,73.38,93,100,5.44,NG,1594862759
chapais,49.78,-74.85,69.8,52,90,10.29,CA,1594862759
suhl,50.6,10.7,54.0,91,100,1.32,DE,1594862759
kieta,-6.22,155.63,84.85,66,3,3.22,PG,1594862759
kaoma,-14.78,24.8,51.98,42,0,9.35,ZM,1594862760
san ramon,37.78,-121.98,84.2,56,1,12.75,US,1594862699
mayakonda,14.28,76.08,71.35,91,100,13.35,IN,1594862760
powell river,49.85,-124.54,78.8,57,40,6.93,CA,1594862474
barcelos,41.54,-8.62,79.0,60,0,5.82,PT,1594862760
kavaratti,10.57,72.64,83.03,78,100,22.21,IN,1594862760
saint-francois,46.42,3.91,60.8,72,90,3.36,FR,1594862760
tsumeb,-19.23,17.72,47.64,43,0,20.04,NA,1594862760
kawalu,-7.38,108.21,75.72,86,87,2.93,ID,1594862761
salekhard,66.53,66.6,50.09,72,0,13.47,RU,1594862761
boca do acre,-8.75,-67.4,75.54,84,37,1.86,BR,1594862761
saint-pierre,-21.34,55.48,66.2,63,29,4.7,RE,1594862761
redlands,34.06,-117.18,89.6,25,5,13.87,US,1594862661
anshun,26.25,105.93,71.42,89,100,13.78,CN,1594862761
pinehurst,35.2,-79.47,82.4,74,90,6.93,US,1594862761
kidal,18.44,1.41,83.35,56,39,3.56,ML,1594862761
am timan,11.03,20.28,73.98,87,100,10.96,TD,1594862762
hambantota,6.12,81.12,77.0,100,20,4.7,LK,1594862762
naryan-mar,67.67,53.09,45.41,87,4,7.07,RU,1594862762
havre-saint-pierre,50.23,-63.6,57.2,76,1,3.36,CA,1594862762
beeville,28.4,-97.75,88.0,74,1,13.87,US,1594862762
necochea,-38.55,-58.74,37.99,83,1,4.0,AR,1594862762
dillon,34.42,-79.37,80.6,88,75,4.7,US,1594862762
thanh hoa,19.8,105.77,87.71,67,0,4.0,VN,1594862645
zheleznodorozhnyy,55.75,38.0,60.01,93,90,4.47,RU,1594862762
itacoatiara,-3.14,-58.44,77.0,94,48,1.12,BR,1594862763
temirtau,50.05,72.95,63.32,68,0,12.53,KZ,1594862763
khani,41.96,42.96,71.6,94,20,2.24,GE,1594862763
mezen,65.85,44.24,44.46,82,100,5.7,RU,1594862763
flinders,-34.58,150.86,60.01,62,100,7.0,AU,1594862763
la ronge,55.1,-105.28,66.2,63,40,20.8,CA,1594862763
cascais,38.7,-9.42,81.0,33,0,12.08,PT,1594862763
mehamn,71.04,27.85,55.24,72,63,7.2,NO,1594862763
eureka,40.8,-124.16,68.0,25,0,4.0,US,1594862680
nipawin,53.37,-104.0,69.8,56,75,17.22,CA,1594862764
ha tinh,18.33,105.9,88.5,56,0,4.68,VN,1594862749
wuchang,44.91,127.15,82.78,55,0,4.94,CN,1594862764
baley,51.6,116.63,72.3,74,100,5.68,RU,1594862764
bor,56.36,44.07,61.0,77,0,8.95,RU,1594862764
fort nelson,58.81,-122.7,71.6,46,75,3.36,CA,1594862764
tahoua,14.89,5.27,80.6,83,0,6.93,NE,1594862764
helena,46.59,-112.04,82.4,18,1,11.41,US,1594862764
ginir,7.13,40.7,55.94,93,100,9.19,ET,1594862764
ribeira brava,32.65,-17.07,69.8,68,40,9.17,PT,1594862765
egvekinot,66.32,-179.17,51.49,82,67,5.26,RU,1594862765
jiwani,25.05,61.74,82.98,81,87,3.6,PK,1594862765
ixtapa,20.7,-105.2,87.01,74,90,6.93,MX,1594862592
cooma,-36.23,149.13,41.0,100,90,18.34,AU,1594862765
huntsville,34.73,-86.59,84.2,62,1,4.16,US,1594862581
waddan,29.16,16.14,76.44,43,0,6.62,LY,1594862765
high prairie,55.43,-116.49,66.11,71,100,7.47,CA,1594862727
el ejido,36.78,-2.81,80.6,42,0,11.41,ES,1594862765
persianovskiy,47.51,40.11,57.99,82,1,2.24,RU,1594862766
grindavik,63.84,-22.43,50.0,100,90,11.41,IS,1594862766
karasburg,-28.02,18.75,44.47,44,0,16.35,NA,1594862766
bima,-8.47,118.72,80.37,64,56,5.97,ID,1594862766
sitka,57.05,-135.33,57.2,87,90,9.17,US,1594862766
darnah,32.77,22.64,74.28,75,0,16.04,LY,1594862766
nan,18.83,100.67,80.6,88,20,2.24,TH,1594862766
garowe,8.41,48.48,77.92,60,93,24.05,SO,1594862766
ivdel,60.69,60.42,68.7,94,66,3.36,RU,1594862766
aden,12.78,45.04,86.52,71,100,7.76,YE,1594862482
inhambane,-23.86,35.38,63.9,70,77,12.86,MZ,1594862767
port hardy,50.7,-127.42,71.6,68,75,9.17,CA,1594862767
krasnoselkup,65.7,82.47,57.92,94,99,13.82,RU,1594862767
masallatah,32.62,14.0,76.05,57,0,18.3,LY,1594862767
beringovskiy,63.05,179.32,56.62,72,1,5.73,RU,1594862767
hirara,24.8,125.28,89.6,70,75,25.28,JP,1594862767
heidelberg,-26.5,28.36,37.0,50,0,2.64,ZA,1594862767
nara,34.69,135.8,78.8,65,75,4.7,JP,1594862480
aketi,2.74,23.78,69.22,96,97,0.4,CD,1594862768
brownsville,25.9,-97.5,87.8,66,40,17.22,US,1594862717
ahuimanu,21.44,-157.84,87.8,58,75,11.41,US,1594862768
olinda,-8.01,-34.86,78.8,74,40,9.17,BR,1594862768
tiznit,29.58,-9.5,75.58,52,0,1.19,MA,1594862768
palmer,42.16,-72.33,71.6,73,75,5.82,US,1594862769
normandin,48.83,-72.53,69.8,60,90,4.7,CA,1594862769
gizo,-8.1,156.84,83.73,73,81,12.5,SB,1594862769
vila franca do campo,37.72,-25.43,68.0,72,75,9.17,PT,1594862769
valparaiso,-33.04,-71.63,51.8,87,75,5.82,CL,1594862769
mae sai,20.43,99.88,82.4,83,20,2.24,TH,1594862769
jijiga,9.35,42.8,62.1,80,100,18.79,ET,1594862770
ahar,38.48,47.07,63.23,76,0,3.29,IR,1594862643
qandala,11.47,49.87,89.6,49,38,10.0,SO,1594862770
hami,42.8,93.45,82.71,18,100,10.42,CN,1594862770
wenling,28.37,121.36,82.99,59,44,3.0,CN,1594862704
fukuma,33.77,130.47,80.01,73,75,4.7,JP,1594862770
raga,8.46,25.68,69.67,90,100,2.66,SS,1594862770
bousse,12.66,-1.89,71.6,100,100,2.24,BF,1594862770
hovd,48.01,91.64,63.34,51,64,2.15,MN,1594862770
santiago de cuba,20.02,-75.82,87.8,58,40,13.87,CU,1594862771
mattru,7.62,-11.83,71.31,96,87,3.94,SL,1594862771
isfana,39.84,69.53,73.4,46,20,2.24,KG,1594862771
altamira,-3.2,-52.21,74.55,79,0,1.52,BR,1594862771
muhos,64.81,25.99,57.2,87,30,4.7,FI,1594862771
tchollire,8.4,14.17,69.76,96,98,2.86,CM,1594862771
ostersund,63.18,14.64,55.4,93,66,5.82,SE,1594862771
havoysund,71.0,24.66,53.6,81,96,5.82,NO,1594862771
galesong,-5.32,119.37,82.4,83,20,3.36,ID,1594862772
huarmey,-10.07,-78.15,61.36,85,56,9.42,PE,1594862772
kazachinskoye,57.7,93.28,58.68,63,64,5.48,RU,1594862772
orahovac,42.4,20.65,59.0,62,40,2.21,XK,1594862772
eyl,7.98,49.82,82.04,60,67,24.65,SO,1594862772
arman,59.7,150.17,61.59,72,60,5.97,RU,1594862772
nurota,40.56,65.69,73.4,49,0,2.24,UZ,1594862773
talnakh,69.49,88.4,50.0,87,40,8.95,RU,1594862773
wadena,46.44,-95.14,75.2,56,1,3.36,US,1594862773
hoquiam,46.98,-123.89,66.0,77,1,11.41,US,1594862667
klaksvik,62.23,-6.59,50.0,100,100,6.93,FO,1594862773
verkhniye sergi,56.65,59.56,69.89,73,0,5.23,RU,1594862773
hobyo,5.35,48.53,79.16,72,100,21.14,SO,1594862773
vila velha,-20.33,-40.29,69.01,94,90,11.41,BR,1594862773
pacific grove,36.62,-121.92,70.0,63,1,10.29,US,1594862687
vaijapur,19.92,74.73,74.19,93,100,7.99,IN,1594862774
umm kaddadah,13.6,26.69,78.22,71,100,23.94,SD,1594862705
gazli,40.13,63.45,79.32,24,0,7.29,UZ,1594862774
sfantu gheorghe,45.87,25.78,59.0,83,100,0.74,RO,1594862774
lisakovsk,52.54,62.49,70.16,66,0,5.14,KZ,1594862774
labuan,5.28,115.24,82.4,88,20,1.12,MY,1594862541
dickinson,29.46,-95.05,87.01,70,20,13.87,US,1594862762
ibra,22.69,58.53,85.89,50,100,2.04,OM,1594862775
halifax,44.65,-63.57,57.99,85,100,1.01,CA,1594862497
bundibugyo,0.74,30.04,64.8,86,94,2.33,UG,1594862775
burnie,-41.07,145.92,54.0,53,0,8.01,AU,1594862775
carbonia,39.17,8.52,72.0,88,0,8.05,IT,1594862495
alakurtti,66.97,30.35,52.0,85,1,3.0,RU,1594862775
borodino,55.91,94.9,55.54,76,11,7.61,RU,1594862775
adrar,20.5,-10.07,92.17,22,0,14.14,MR,1594862776
kigorobya,1.62,31.31,65.44,90,92,1.92,UG,1594862776
srivardhan,18.03,73.02,78.1,91,100,13.58,IN,1594862776
ust-kuyga,70.02,135.6,53.46,49,0,20.04,RU,1594862776
ndele,8.41,20.65,69.71,95,100,2.42,CF,1594862776
vitim,59.45,112.56,60.28,87,100,6.6,RU,1594862776
gayeri,12.65,0.49,76.51,82,100,7.65,BF,1594862776
butembo,0.15,29.28,56.16,98,77,2.06,CD,1594862777
longavi,-35.97,-71.68,51.39,83,100,4.94,CL,1594862777
mosquera,4.71,-74.23,53.6,81,75,6.93,CO,1594862541
arlit,18.74,7.39,90.77,12,0,6.96,NE,1594862777
aswan,24.09,32.91,85.48,19,0,12.57,EG,1594862777
phan thiet,10.93,108.1,81.39,80,59,4.81,VN,1594862777
paramirim,-13.44,-42.24,68.11,65,1,9.73,BR,1594862778
moussoro,13.64,16.49,85.28,42,98,5.26,TD,1594862778
lashio,22.93,97.75,72.16,98,100,0.6,MM,1594862778
tingi,-11.3,35.03,49.69,78,62,3.27,TZ,1594862778
wakkanai,45.41,141.67,68.0,77,75,2.24,JP,1594862778
srandakan,-7.94,110.25,79.41,79,78,9.33,ID,1594862778
